{"users":[{"name":"Emile Quenee","company":"TheFabulous","coordinates":[2.3134818,48.8817402],"label":"EQ","city":" 17 Av de Villiers, 75017, Paris","country":"France"},{"name":"Adele Hurabielle Claverie","company":"Netatmo","coordinates":[2.2376923,48.82894750000001],"label":"AHC","city":"892 rue Yves Kermen, 92100 Boulogne-Billancourt","country":"France"},{"name":"Paul Chollet","company":"HEC - MNT","coordinates":[2.1693707,48.7589967],"label":"PC","city":"1 Rue de la Libération, 78350 Jouy-en-Josas","country":"France"},{"name":"Guillaume Deberdt","company":"Klee Group","coordinates":[2.2393221,48.7747563],"label":"GD","city":"La Boursidiere, Le Plessis Robinson","country":"France"},{"name":"Adrien Lutfalla","company":"Airbus Defense \u0026 Space - Cybersecurity","coordinates":[1.9657504,48.7940917],"label":"AL","city":"1 boulevard Jean Moulin, 78990 Élancourt","country":"France"},{"name":"Simon Martin","company":"3DS","coordinates":[2.2089985,48.78655260000001],"label":"SM","city":"10 rue Marcel Dassault ","country":"78 140 VELIZY-VILLACOUBLAY"},{"name":"Pierre Boutaut","company":"Morpho","coordinates":[2.2743419,48.8245306],"label":"PB","city":"Issy-les-Moulineaux","country":"France"},{"name":"Gaetan Prieur Drevon","company":"PwC","coordinates":[-73.97993269999999,40.7526122],"label":"GPD","city":"300 Madison avenue, NY 10017, New York","country":"USA"},{"name":"Matthieu Buffet","company":"Airbus Defence \u0026 Space - Cybersecurity","coordinates":[1.9657504,48.7940917],"label":"MB","city":"1 boulevard Jean Moulin, 78990 Elancourt","country":"France"},{"name":"Alexis Polti","company":"Alexis Polti","coordinates":[2.3464188,48.8262943],"label":"AP","city":"46 rue Barrault, 75013 Paris","country":"France"},{"name":"Matthieu Vegreville","company":"Ernst \u0026 Young","coordinates":[2.2519764,48.8895847],"label":"MV","city":"Tour First 1 Place des Saisons 92400 Courbevoie","country":"France"},{"name":"Charly Fontaine","company":"Bull","coordinates":[2.2673255,48.8328569],"label":"CF","city":"5 Bd Galienni Issy les moulineaux","country":"France"},{"name":"Wajih Jmaiel","company":"Solucom","coordinates":[2.2408345,48.8895513],"label":"WJ","city":"100 terrasse Boieldieu, Paris La Défense","country":"France"},{"name":"Guillaume Suchet","company":"HEC - MNT","coordinates":[2.1693707,48.7589967],"label":"GS","city":"1 Rue de la Libération, 78350 Jouy-en-Josas","country":"France"},{"name":"Martin Delzant","company":"StageFH","coordinates":[136.7634672,35.4265868],"label":"MD","city":"23 Kamitakechō, Gifu-shi, Gifu-ken, Japan","country":"Japon"},{"name":"Thierry Deo","company":"PriceMatch","coordinates":[2.3455276,48.86810999999999],"label":"TD","city":"2 rue du Sentier","country":"Paris"},{"name":"Adrien Matissart","company":"Content Square","coordinates":[2.3103404,48.8700768],"label":"AM","city":"4 avenue Franklin D Roosevelt, 75008 Paris","country":"France"},{"name":"Felix Henon","company":"Polyconseil / Autolib'","coordinates":[2.3061561,48.8729164],"label":"FH","city":"26 rue de berri, 75008","country":"France"},{"name":"Philippe Boneff","company":"OLPC","coordinates":[48.3489356,-13.4712828],"label":"PB","city":"Nosy Komba","country":"Madagascar"},{"name":"Melissa Rossi","company":"OLPC","coordinates":[48.3489356,-13.4712828],"label":"MR","city":"Nosy Komba","country":"Madagascar"},{"name":"Matthieu Moreau","company":"Télékomba","coordinates":[48.3489356,-13.4712828],"label":"MM","city":"Nosy-Komba","country":"madagascar"},{"name":"Nicolas Trinquier","company":"Amadeus","coordinates":[-71.2053907,42.3843927],"label":"NT","city":"307 Waverley Oaks Rd #401, Waltham, MA 02452","country":"USA"},{"name":"Simon Duvergier","company":"Erasmus","coordinates":[-0.3762881,39.4699075],"label":"SD","city":"Valence","country":"Espagne"},{"name":"Benjamin Bontemps","company":"Hakuba High Mount Hotel","coordinates":[137.8628639,36.6956166],"label":"BB","city":"Hokujo, Hakuba, Kitaazumi District, Nagano 399-9301","country":"Japon"},{"name":"Dominique Yang","company":"Solucom","coordinates":[2.2418428,48.8897359],"label":"DY","city":"La défense","country":"France"},{"name":"Daniel Brooks","company":"CSIRO","coordinates":[153.0234489,-27.4710107],"label":"DB","city":"Brisbane","country":"Australie"},{"name":"Jean   Tahsin Ozkan","company":"Vestel","coordinates":[27.428921,38.619099],"label":"JTO","city":"Manisa","country":"Turkiye"},{"name":"Nicolas Goester","company":"3Ds","coordinates":[2.2089985,48.78655260000001],"label":"NG","city":"10 Rue Marcel Dassault, 78140 Vélizy-Villacoublay","country":"France"},{"name":"Guillaume Soule","company":"NUS","coordinates":[103.8509491,1.2800945],"label":"GS","city":"Singapore","country":"Singapore"},{"name":"Hugo Borne  Pons","company":"KDDI labs","coordinates":[139.5178086,35.8793272],"label":"HBP","city":"2-1-15 Ohara, Fujimino, Saitama, 356-8502","country":"Japon"},{"name":"Camille Meunier","company":"Kyriba","coordinates":[-117.1610838,32.715738],"label":"CM","city":"San Diego","country":"USA"},{"name":"Mathias Leborgne","company":"Aldebaran","coordinates":[2.3110503,48.8303462],"label":"ML","city":"169, rue Raymond Losserand, 75014, Paris","country":"France"},{"name":"Guillaume Chabin","company":"Siemens","coordinates":[-74.6672226,40.3572976],"label":"GC","city":"Princeton","country":"USA"},{"name":"Pierre Dubreuil","company":"EIA","coordinates":[-75.575137,6.235925],"label":"PD","city":"Medellin","country":"Colombia"},{"name":"Pauline Rabis","company":"Continental Automotive GmbH","coordinates":[12.1419954,49.00675649999999],"label":"PR","city":"Siemensstraße 12 93055 Regensburg","country":"Allemagne"},{"name":"Vincent Monet","company":"Keyrus","coordinates":[121.473701,31.230416],"label":"VM","city":"Shanghai","country":"Chine"},{"name":"Louise Columelli","company":"cipsa","coordinates":[-77.0427934,-12.046374],"label":"LC","city":"Lima","country":"Peru"},{"name":"Nouha Chhih","company":"DB Archi","coordinates":[121.5327069,31.2982805],"label":"NC","city":"Room 317, West Building,  No.800, Guoshundong Rd, Yangpu District, Shanghai, China","country":"Shanghai"},{"name":"Edouard Seignol","company":"Amundi","coordinates":[2.3152956,48.8390147],"label":"ES","city":"90 Boulevard Pasteur 75015 Paris","country":"France"},{"name":"Clement Congard","company":"ATR Robotics","coordinates":[135.7575406,34.7445602],"label":"CC","city":"〒619-0288  2-2-2 Hikaridai Seika-cho, Soraku-gun, Kyoto-fu","country":"Japan"},{"name":"Travers","company":"NII","coordinates":[139.6917064,35.6894875],"label":"T","city":"Tokyo","country":"Japon"},{"name":"Pierre Lorin De Reure","company":"Tatacommunications","coordinates":[-73.55399249999999,45.5086699],"label":"PLDR","city":"Montreal","country":"Canada"},{"name":"Paola Vaulet","company":"Norddeutsche Pflanzenzucht Hans-Georg Lembke KG","coordinates":[11.4734,53.98753],"label":"PV","city":"Inselstr. 15 23999 Malchow/Insel Poel","country":"Deutschland"},{"name":"Dimitri Tuaz Torchon","company":"Traruwe","coordinates":[-64.1821289,-31.3989296],"label":"DTT","city":"Cordoba","country":"Argentine"},{"name":"Guenole Lallement","company":"Imperial College","coordinates":[-0.1782187,51.5005046],"label":"GL","city":"London SW7 2AZ","country":" Royaume-Uni ‎ "},{"name":"Guillaume Dardelet","company":"Irish Distillers","coordinates":[-6.2603097,53.3498053],"label":"GD","city":"Dublin","country":"Irlande"},{"name":"Charles Parent","company":"Traruwe","coordinates":[-64.1821289,-31.3989296],"label":"CP","city":"Cordoba","country":"Argentine"},{"name":"Romain Lentgen","company":"algonovera","coordinates":[-64.1821289,-31.3989296],"label":"RL","city":"Cordoba","country":"Argentine"},{"name":"Matthieu Allegre","company":"Melusyn","coordinates":[2.4035691,48.854842],"label":"MA","city":"80 Rue des Haies, Paris","country":"France"},{"name":"Guillaume Paillot","company":"Criteo","coordinates":[-0.1384411,51.5159836],"label":"GP","city":"4 Winsley street, London","country":"England"},{"name":"Pierre Guceski","company":"Focusmatic","coordinates":[2.2865164,48.8428507],"label":"PG","city":"107 rue de lourmel 75015 Paris","country":"France"},{"name":"Nicolas Dolgin","company":"Observia","coordinates":[2.338019,48.8362865],"label":"ND","city":"rue du faubourg St Jacques 75014 Paris","country":"France"},{"name":"Daniel","company":"Feeligo","coordinates":[2.3380539,48.8430911],"label":"D","city":"76 boulevard saint-michel","country":"Paris"},{"name":"Quentin Michelet","company":"Orbotix Inc.","coordinates":[-105.240141,40.018707],"label":"QM","city":"4772 Walnut street boulder, co, 80302","country":"USA"},{"name":"Maeva Escoulan","company":"OLPC","coordinates":[48.3489356,-13.4712828],"label":"ME","city":"Nosy Komba","country":"Madagascar"},{"name":"Barthelemy Bidot","company":"Actelion","coordinates":[-99.14743279999999,19.4254262],"label":"BB","city":"Calle Dr Rio de la Loza","country":"Mexico"},{"name":"Mayeul Picard","company":"CM-CIC","coordinates":[4.755992099999999,45.7509429],"label":"MP","city":"63 Chemin Antoine Pardon 69160 Tassin la demi-lune","country":"France"},{"name":"Julien Philip","company":"StageFH","coordinates":[136.6817388,35.3597467],"label":"JP","city":"〒５０３－０１０３ 大垣市墨俣町上宿 ７２２","country":"Japon"},{"name":"Edouard Epaud","company":"Cbb Software","coordinates":[11.4751152,48.782015],"label":"EE","city":"Marie-Curie-Straße 6, 85055 Ingolstadt","country":"Allemagne"},{"name":"Olivier Penin","company":"Ernst \u0026 Young","coordinates":[2.2519764,48.8895847],"label":"OP","city":"1 place des saisons","country":"92400 Courbevoie"},{"name":"Stephane Bonanno","company":"Mongolie","coordinates":[106.92,47.91999999999999],"label":"SB","city":"Oulan-Bator","country":"mongolie"},{"name":"Mohamed Mami","company":"Mixdata","coordinates":[2.2489138,48.8335954],"label":"MM","city":"95 Rue Marcel Dassault, Boulogne-Billancourt, 92100","country":"France"},{"name":"Lea Peng","company":"Sopra Consulting","coordinates":[2.2418428,48.8897359],"label":"LP","city":"La defense","country":"France"},{"name":"Galliano","company":"Sagem Défense Sécurité","coordinates":[2.2606011,48.721684],"label":"G","city":"100 rue de Paris","country":"Massy"},{"name":"Aymeric Blanchet","company":"EY","coordinates":[2.2519764,48.8895847],"label":"AB","city":"1 square des Saisons Courbevoie","country":"France"},{"name":"Guillaume Le Guludec","company":"TamagochiInc.","coordinates":[136.7606537,35.4232984],"label":"GLG","city":"Gifu","country":"Japon"},{"name":"Romain Croze","company":"Glassworks","coordinates":[-0.13617,51.5119568],"label":"RC","city":"33-34 Gt. Pulteney Street London W1F 9NP","country":"England"},{"name":"Lauriane Aufrant","company":"LIMSI CNRS","coordinates":[2.174891,48.7079253],"label":"LA","city":"rue Louis de Broglie 91403 Orsay","country":"France"},{"name":"Viktor Jarry","company":"MongoliaWednesday","coordinates":[103.846656,46.862496],"label":"VJ","city":"Mongolie","country":"Mongolie"},{"name":"Arthur Meyer","company":"KAIST","coordinates":[127.3845475,36.3504119],"label":"AM","city":"Daejon","country":"Korea"},{"name":"Hugo Vallet","company":"Club de plongée","coordinates":[-3.398578,47.705401],"label":"HV","city":"Kerguelen","country":"France"},{"name":"Felix Richart","company":"Kankaroo","coordinates":[2.3555556,48.8322222],"label":"FR","city":"Paris 75013","country":"France"},{"name":"Thibaut Deslandes","company":"Klee Conseil","coordinates":[2.2803675,48.8272261],"label":"TD","city":"31 Rue Ernest Renan 92130 Issy-les-Moulineaux","country":"France"},{"name":"Pere Noel","company":"Toy'sRus","coordinates":[25.8439438,66.543779],"label":"PN","city":"Tähtikuja 1, FI-96930 Napapiiri","country":"Laponie"},{"name":"Antoine Husson","company":"Imperial College","coordinates":[-0.1782187,51.5005046],"label":"AH","city":"London SW7 2AZ","country":"Royaume-Uni"},{"name":"Diane Darmon","company":"Moelis \u0026 Co","coordinates":[-73.9719807,40.7590251],"label":"DD","city":"399 Park Avenue, New York","country":"USA"},{"name":"Cedric Meston","company":"Whaaaaaaat","coordinates":[6.142296099999999,46.1983922],"label":"CM","city":"geneve","country":"suisse"},{"name":"Mathieu Giard","company":"ID Development","coordinates":[114.1755554,22.2989732],"label":"MG","city":"45-51 Chatham Road South, Tsimshatsui, Kowloon, Hong Kong","country":"Hong Kong"},{"name":"Luc Nicodeme","company":"Thales","coordinates":[2.077934,48.64546499999999],"label":"LN","city":"Limours","country":"France"},{"name":"Gabriel Richet","company":"Aegee","coordinates":[30.5234,50.4501],"label":"GR","city":"kiev","country":"Ukraine"},{"name":"Adrien Tibere Inglesse","company":"Shapter","coordinates":[2.3384158,48.83141490000001],"label":"ATI","city":"9 rue dareau 75014 Paris","country":"France"},{"name":"Antoine Miech","company":"Dxcel - Bar Tap House","coordinates":[121.4749414,31.2386132],"label":"AM","city":"74 yongkang lu, Shanghai","country":"Chine"},{"name":"Charles Thin","company":"Aerospace Embedded Solutions GmbH","coordinates":[11.481335,48.213535],"label":"CT","city":"Dachauerstraße 665, 80995 München","country":"Germany"},{"name":"Antoine Isnardy","company":"Solucom","coordinates":[2.3522219,48.856614],"label":"AI","city":"Paris","country":"France"},{"name":"Eric Masseran","company":"StageFH","coordinates":[136.7495802,35.4171907],"label":"EM","city":"500-8861 Senjudo Kitamachi, Gifu","country":"Japon"},{"name":"Arthur Ouaki","company":"Smart Flows","coordinates":[2.3657146,48.8623239],"label":"AO","city":"10 Rue des Filles du Calvaire","country":"Paris"},{"name":"Alexandrine Torrents","company":"Solucom","coordinates":[2.2408345,48.8895513],"label":"AT","city":"100 Terrasse Boieldieu, 92800 Puteaux","country":"France"},{"name":"Benedicte Giraud","company":"Inovia","coordinates":[2.3484181,48.8714532],"label":"BG","city":"10 rue du Faubourg Poissonnière, Paris","country":"France"},{"name":"Patrick Lambein","company":"Cambridge University Computer Laboratory","coordinates":[0.0910627,52.2109999],"label":"PL","city":"15 JJ Thomson Avenue Cambridge CB3 0FD","country":"United Kingdom"},{"name":"Timothee Le Quesne","company":"NUS","coordinates":[103.8509491,1.2800945],"label":"TLQ","city":"Singapore","country":"Singapore"},{"name":"Agathe Viano","company":"Orange RSE","coordinates":[2.2944881,48.8332832],"label":"AV","city":"78 rue Olivier de Serres","country":"Paris"},{"name":"Antonin Borgnon","company":"Still looking","coordinates":[29.0039812,41.0430393],"label":"AB","city":"8 sinanpaşa köprüsü","country":"Istanbul"},{"name":"Marie Milliet De Faverges","company":"FIDEI","coordinates":[-15.6833333,16.4666667],"label":"MMDF","city":"Richard Toll","country":"Senegal"},{"name":"Pierre Francois Lucet","company":"Promesse Cambodge","coordinates":[104.8921668,11.5448729],"label":"PFL","city":"Phnom Penh","country":"Cambodgia"},{"name":"Adil Hihi","company":"FIDEI","coordinates":[-15.6833333,16.4666667],"label":"AH","city":"Richard Toll","country":"Senegal"},{"name":"Jami Kai","company":"Amadeus","coordinates":[7.261953200000001,43.7101728],"label":"JK","city":"Nice","country":"France"},{"name":"Noemie Bristol","company":"London School of Economics and Political Science","coordinates":[-0.116546,51.5139737],"label":"NB","city":"Houghton St, London WC2A 2AE","country":"Royaume-Uni"},{"name":"Aurore Yvard","company":"Saint Gobain","coordinates":[114.5510845,36.6121596],"label":"AY","city":"Xinkai Street, Economic Development Zone, Handan 056107, Hebei Province","country":"China"},{"name":"Camille Jandot","company":"Ministère de la défense","coordinates":[2.3187669,48.8571928],"label":"CJ","city":"Rue de Grenelle","country":"Paris"},{"name":"Jimmy Castex","company":"cadogan clinic","coordinates":[-0.1254872,51.508515],"label":"JC","city":"London","country":"UK"},{"name":"Edouard Thomas","company":"telekomba","coordinates":[48.3489356,-13.4712828],"label":"ET","city":"NosyKomba","country":"Madagascar"},{"name":"Yann Le Guen","company":"Imperial College","coordinates":[-0.176603,51.5001425],"label":"YLG","city":"South Kensington Campus, London SW7 2AZ","country":"Angleterre"},{"name":"Camille Moufle","company":"Kurt Salmon","coordinates":[-73.9766216,40.7597793],"label":"CM","city":"650 Fifth Avenue, 22nd Floor New York, NY 10019, USA","country":"USA"},{"name":"Zaccharie Ramzi","company":"FIDEI","coordinates":[-16.4818167,16.0326307],"label":"ZR","city":"Saint-Louis","country":"Senegal"},{"name":"Daniel Lollo","company":"NUS","coordinates":[103.7777567,1.2971342],"label":"DL","city":"21 Lower Kent Ridge Road","country":"Singapore"},{"name":"Petkantchi","company":" Hitachi","coordinates":[139.6917064,35.6894875],"label":"P","city":" Tokyo ","country":"Japon"},{"name":"Mathieu Chevlier","company":"m.csalettes@gmail.com","coordinates":[2.2771434,48.8922777],"label":"MC","city":"63, rue de Villiers, 92200 Neuilly-sur-Seine - PwC","country":"France"},{"name":"Antoine Messager","company":"Imperial College","coordinates":[-0.1746853,51.4941501],"label":"AM","city":"South Kensington, London","country":"UK"},{"name":"Lou Andrea Chauvelot","company":"Irish Distillers","coordinates":[-6.2603097,53.3498053],"label":"LAC","city":"Dublin","country":"Irlande"},{"name":"Johan Ferret","company":"TeleKomba","coordinates":[48.3489356,-13.4712828],"label":"JF","city":"Nosy Komba","country":"Madagascar"},{"name":"Celine Chen","company":"Daxue Consulting","coordinates":[121.4840727,31.2158424],"label":"CC","city":"Fangxie Road # 525, Huangpu District, Shanghai, China","country":"China"},{"name":"Eymeric Genty","company":"GEREJE Corporate Finance","coordinates":[103.8456663,1.2818623],"label":"EG","city":"82 Club Street","country":"Singapore"},{"name":"Nicolas Feignon","company":"Sauron Inc'","coordinates":[171.2107623,-42.4503925],"label":"NF","city":"Greymouth","country":"New Zealand"},{"name":"Marc Faddoul","company":"Arkadin","coordinates":[-0.2260334,51.4948765],"label":"MF","city":"26-28 Hammersmith Grove, London W6 7JA","country":"United Kingdom"},{"name":"Emilie Rozes","company":"Uzik","coordinates":[2.3553365,48.8733917],"label":"ER","city":"80, Rue du Faubourg Saint-Denis Paris","country":"France"},{"name":"Thanhxuan Nguyen","company":"Crédit Agricole CIB","coordinates":[2.3522219,48.856614],"label":"TN","city":"Paris","country":"France"},{"name":"Nadya Serbouti","company":"D'Art Louane","coordinates":[-6.8385811,34.0266912],"label":"NS","city":"21, rue Dourra Ancienne Médina 10000 Rabat","country":"Maroc"},{"name":"Geoffroy Couteau","company":"ENS Ulm","coordinates":[2.3440345,48.84183669999999],"label":"GC","city":"45 rue d'Ulm, 75013 Paris","country":"France"},{"name":"Thomas Rousseau","company":"Polyconseil / Autolib","coordinates":[2.3061561,48.8729164],"label":"TR","city":"26 rue de Berry 75008 Paris","country":"France"},{"name":"Paul Schreiner","company":"PLES Convergence","coordinates":[2.3043281,48.8721243],"label":"PS","city":"63 rue de Ponthieu 75008 Paris","country":"France"},{"name":"Mathieu Chevalier","company":"PwC","coordinates":[2.2771434,48.8922777],"label":"MC","city":"63, rue de Villiers, 92200 Neuilly-sur-Seine","country":"France"},{"name":"Nicolas Daubresse","company":"Theodo","coordinates":[2.3224832,48.88269769999999],"label":"ND","city":"48 Boulevard des Batignolles - 75017 Paris","country":"France"},{"name":"Thibaut Collette","company":"HEC - MNT","coordinates":[2.1694163,48.757887],"label":"TC","city":"HEC, Jouy-en-Josas","country":"France"},{"name":"Cyril Duchon Doris","company":"ONERA","coordinates":[5.109166699999999,43.6063889],"label":"CDD","city":"base aérienne 701","country":"France"},{"name":"Chiara Prencipe","company":"Airbus Defense \u0026 Space","coordinates":[1.9281222,48.9979696],"label":"CP","city":"51/61, route de Verneuil 78133 LES MUREAUX","country":"France"},{"name":"Claire Vandevoorde","company":"InVisage Inc.","coordinates":[-122.1491751,37.478106],"label":"CV","city":"990 Hamilton Avenue, Menlo Park","country":"USA"},{"name":"Willy Man Soon Au","company":"Dxcel","coordinates":[121.4429302,30.9090883],"label":"WMSA","city":"Yu Kang Lu, Shanghai","country":"Chine"},{"name":"Sami Fourati","company":"The World Bank","coordinates":[-77.04256,38.898957],"label":"SF","city":"1818 H Street, NW USA Washington, DC 20433","country":"USA"},{"name":"Antoine Kahn","company":"Canal+","coordinates":[2.2627036,48.82794810000001],"label":"AK","city":"1 place du spectacle, Issy-les-Moulineaux","country":"France"},{"name":"Johan Morganti","company":"Cofely GDF-Suez","coordinates":[2.2366357,48.8895119],"label":"JM","city":"1 place des degrès; la défense","country":"France"},{"name":"Julien Romero","company":"Unknown","coordinates":[136.7484385,35.4229538],"label":"JR","city":"1 Chome-16 Ikedamachi, Gifu-shi, Gifu-ken, Japon","country":"Japan"},{"name":"Remi Sormain","company":"Astur GmbH","coordinates":[11.5406844,53.1913929],"label":"RS","city":"Lindenstraße 19300 Milow","country":"Allemagne"},{"name":"Zhongwei Hu","company":"APF Avasion","coordinates":[1.238798,45.877448],"label":"ZH","city":"Couzeix","country":"France"},{"name":"Guillaume Gombert","company":"Essilor International","coordinates":[2.4288303,48.8474836],"label":"GG","city":"64 bis avenue Aubert 94300 Vincennes","country":"France"},{"name":"Laetitia Lemaistre","company":"Thales","coordinates":[1.960077,48.78290699999999],"label":"LL","city":"Elancourt","country":"France"},{"name":"Claire Vernade","company":"LTCI","coordinates":[2.3366859,48.8308984],"label":"CV","city":"rue Dareau","country":"Paris"},{"name":"Felix Raimundo","company":"Polyconseil / Autolib'","coordinates":[2.3061561,48.8729164],"label":"FR","city":"26, rue de Berri 75008 Paris","country":"France"},{"name":"Hicham Hoepffner","company":"HEC-MNT","coordinates":[2.1694163,48.757887],"label":"HH","city":"HEC ","country":"Jouy-en-Josas"},{"name":"Maxime Arbisa","company":"CEA","coordinates":[2.24065,48.58602399999999],"label":"MA","city":"Bruyères le chatel, Arpajon","country":"France"},{"name":"Sami El Khoury","company":"Orange","coordinates":[5.3981653,43.240503],"label":"SEK","city":"18 Rue jacques Reattu","country":"MARSEILLE"},{"name":"Yohann Lemoine","company":"3DS","coordinates":[2.2089985,48.78655260000001],"label":"YL","city":"10 Rue Marcel Dassault, 78140 Vélizy-Villacoublay","country":"France"},{"name":"Yiling Liu","company":"Amadeus","coordinates":[7.0552218,43.6163539],"label":"YL","city":"amdeus, Sophia Antipolis","country":"France"},{"name":"Romain Faugeroux","company":"LiveRamp","coordinates":[-122.3915063,37.7890183],"label":"RF","city":"667 Mission St. Fl. 4  San Francisco, CA 94105","country":"USA"},{"name":"Agathe Lelong","company":"HEC-MNT","coordinates":[2.1693707,48.7589967],"label":"AL","city":"1 rue de la Libération, 78350 Jouy-en-Josas","country":"France"},{"name":"Axel Aronio De Romblay","company":"Ubisoft","coordinates":[2.3522219,48.856614],"label":"AADR","city":"Paris","country":"France"},{"name":"Pierre De Sainte Agathe","company":"SILKAN Solutions","coordinates":[3.876716,43.610769],"label":"PDSA","city":"Montpellier","country":"France"},{"name":"Soufiane Fares","company":"ESSEC","coordinates":[2.078025,49.034154],"label":"SF","city":"1 Avenue Bernard Hirsch, 95021 Cergy-Pontoise","country":"France"},{"name":"Bangmo","company":"Mazars","coordinates":[2.2434603,48.89175789999999],"label":"B","city":"61, rue Henri Regnault, 92400 Courbevoie","country":"Paris La Défense"},{"name":"Amos Bangmo","company":"Mazars","coordinates":[2.2434603,48.89175789999999],"label":"AB","city":"61, rue Henri Regnault, 92400 Courbevoie","country":"Paris La Défense"},{"name":"Botteede","company":"BNP Paribas","coordinates":[-73.9822459,40.76189919999999],"label":"B","city":"787 7th avenue 10019 New York City","country":"USA"},{"name":"Guillaume Wenzek","company":"Proxem","coordinates":[2.3607608,48.8704516],"label":"GW","city":"19 bd Magenta, Paris","country":"France"},{"name":"Luka Music","company":"IBI","coordinates":[-73.992255,40.749712],"label":"LM","city":"2 Penn Plaza, New York, NY 10121-2898","country":"USA"},{"name":"Issa Camara","company":"Bureau Véritas","coordinates":[2.2754795,48.8946883],"label":"IC","city":"100-102 Rue de Villiers, 92300 Levallois-Perret","country":"France"},{"name":"Hue Man Tran Diep","company":"Orange Labs","coordinates":[2.2761387,48.8252065],"label":"HMTD","city":"Rue du Général Leclerc, 92130 Issy-les-Moulineaux","country":"France"},{"name":"Marc Beillevaire","company":"Visual TV","coordinates":[2.2761921,48.8454072],"label":"MB","city":"Quai André Citroën, Paris","country":"France"},{"name":"Sebastien Duval","company":"Inria","coordinates":[2.1107619,48.837144],"label":"SD","city":"Rocquencourt","country":"France"},{"name":"Jeremy Andriamakaoly","company":"INA","coordinates":[2.5320103,48.8368092],"label":"JA","city":"4 avenue de l'Europe, Bry-sur-Marne","country":"France"},{"name":"Paul Berthier","company":"Polytechnique Montréal","coordinates":[-73.6188269,45.5032775],"label":"PB","city":"2900 Boulevard Edouard-Montpetit, Montréal, QC H3T 1J4","country":"Canada"},{"name":"Hao Zhang","company":"26 Tennocho Kasamatu Hashimagun","coordinates":[136.7588397,35.3680301],"label":"HZ","city":"〒501-6077岐阜県羽島郡笠松町天王町26番地","country":"Japan"},{"name":"Jean Dupont","company":"Google","coordinates":[-122.0840046,37.4219951],"label":"JD","city":"1600 Amphitheatre Pkwy, Mountain View","country":"USA"},{"name":"Dan Haloua","company":"Societe Generale","coordinates":[-73.97534110000001,40.7550491],"label":"DH","city":"245 Park Avenue","country":"USA"}]}
